Postal Code,Place Name,Latitude,Longitude
10101,Centro de Los Heroes ,18.6881,-69.9905
10102,Mata Hambre ,18.45,-69.9333
10103,Zona Universitaria ,18.6881,-69.9905
10104,San Geronimo ,18.7667,-69.4667
10105,Ciudad Universitaria ,18.6881,-69.9905
10106,Los Robles ,19.4333,-70.4
10107,Esperilla ,18.45,-70.0833
10108,Esperilla ,18.45,-70.0833
10109,La Julia ,18.4667,-69.9333
10110,El Embajador ,18.45,-69.9333
10111,Bella Vista ,18.45,-69.9333
10112,Bella Vista ,18.45,-69.9333
10113,Sarasota ,18.45,-69.9333
10114,Mirador Norte ,18.45,-69.9333
10115,Rocamar ,18.45,-69.9333
10116,Ciudad Gandera ,18.45,-69.9333
10117,Hoduras ,18.45,-69.9333
10118,Antillas ,18.45,-69.9333
10119,Naco ,18.45,-69.9333
10120,La Yuca ,18.4833,-69.9833
10121,Arboleda (Naco) ,18.4667,-69.7833
10122,Centro Olimpico ,18.4667,-69.7833
10123,Naco ,18.4667,-69.7833
10124,Naco ,18.4667,-69.7833
10125,Lopez de Vega ,18.4667,-69.7833
10126,Paraiso ,18.45,-69.4167
10127,Piantini ,18.4667,-69.95
10128,Carmelita ,18.4667,-69.7833
10129,Urbanizacion Fernandez ,18.4667,-69.7833
10130,Julieta Morales ,18.55,-69.8125
10131,Los Prados ,18.4667,-69.95
10132,Los Prados ,18.4667,-69.95
10133,Castellana ,18.55,-69.8125
10134,San Geronimo ,18.7667,-69.4667
10135,Ciudad Moderna ,18.55,-69.8125
10136,Residencial Rosmil ,18.55,-69.8125
10137,Los Restauradores ,18.55,-69.8125
10138,Manganagua ,18.5,-69.8833
10139,Los Millones ,18.55,-69.8125
10140,Los Millones ,18.4556,-69.95
10141,Los Millones ,18.4556,-69.95
10142,Los Millones ,18.4556,-69.95
10143,Estela Marina ( Los Millones). ,18.4556,-69.95
10144,Los Millones ,18.4556,-69.95
10145,Ensanche Quisqueya ,18.45,-69.95
10146,Ensanche Quisqueya ,18.45,-69.95
10147,Evaristo Morales ,18.4556,-69.95
10148,Piantini ,18.4667,-69.95
10149,El Millon ,18.4556,-69.95
10150,Piantini ,18.4667,-69.95
10201,Don Bosco ,18.4667,-69.9
10202,Don Bosco ,18.4667,-69.9
10203,Miraflores ,18.4667,-69.9
10204,Gazcue ( Plaza de La Cultura ) ,18.4667,-69.9
10205,Gazcue ,18.4667,-69.9
10206,Ensanche Independencia ,18.4667,-69.9
10207,La Primavera ,18.4667,-69.9
10208,Ciudad Nueva ,18.4667,-69.9
10209,Ensanche Lugo ,18.4667,-69.9
10210,Zona Colonial ,18.5917,-69.8944
10211,San Lazaro ,18.5917,-69.8944
10212,San Miguel ,18.5,-70.0167
10213,Borojol ,19.15,-69.75
10214,Villa Francisca ,18.4667,-69.9
10215,Villa Francisca ,18.4667,-69.9
10216,San Carlos ,18.4833,-69.9
10217,San Carlos ,18.4833,-69.9
10218,Reparto Aguedita ( Gazcue) ,18.5917,-69.8944
10301,Mejoramiento Social ,18.5985,-70.0136
10302,Maria Auxiliadora ,18.5,-69.8833
10303,La Cienaga ,18.6167,-70.2333
10304,Domingo Savio ,19.2833,-71.4
10305,Maria Auxiliadora ,18.5,-69.8833
10306,Mejoramiento Social ,18.5985,-70.0136
10307,Villa Maria ,18.4833,-69.9
10308,Villa Consuelo ,18.4833,-69.9
10309,Villa Consuelo ,18.4833,-69.9
10401,Ensanche Luperon ,18.5,-69.9
10402,Ensanche Espaillat ,18.5,-69.8833
10403,Gualey ,18.5,-69.9167
10404,24 de Abril ,18.5,-69.9167
10405,Simon Bolivar ,18.5,-69.9
10406,Ensanche Luperon ,18.5,-69.9
10407,Capotillo ,18.5,-69.9
10408,La Zurza ,18.5,-70.0167
10409,Villas Agricolas ,18.5,-69.9167
10410,La Caridad ,18.5,-69.9
10411,El Ensanchito ,18.4833,-69.9
10412,Villa Juana ,18.4917,-69.9
10413,Villa Juana ,18.4917,-69.9
10501,Cristo Rey ,18.5,-69.9333
10502,Yaquito ,19.1944,-70.3889
10503,La Isabela ,18.6667,-70.15
10504,Isabel Villas ,18.7218,-70.2474
10505,Manzano ,18.5167,-69.9667
10506,Altos de Arroyo Hondo II ,18.7218,-70.2474
10507,La Puya ,18.8167,-70.05
10508,La Aldaba ,18.65,-70.3083
10509,La Agustinita ,18.7218,-70.2474
10510,Los Caminos ,18.4917,-69.9292
10511,La Fe ,18.4833,-69.9333
10512,La Fe ,18.4833,-69.9333
10513,Ens. Kennedy ,18.4917,-69.9292
10514,Cachiman ,18.4917,-69.9292
10515,Barrio Obrero ,18.5,-69.9167
10516,Lanna Gautier ,18.5,-69.9333
10601,Constelacion ,18.58,-70.6767
10602,Los Jardines del Norte ,18.58,-70.6767
10603,Las Villas ,18.58,-70.6767
10604,La Esperanza ,18.6,-70.5
10605,Altos de Arroyo Hdo. III ,18.58,-70.6767
10606,Residencial La Yuca ,18.58,-70.6767
10607,Los Guayabos ,18.6,-70.5167
10608,Las Colinas ,18.4,-70.3333
10701,La Redencion ,18.5917,-70.075
10702,Los Girasoles ,19.15,-70.2833
10801,Barrio La Fe ,19.5667,-71.7167
10802,Barrio Paraiso ,19.15,-70.7
10803,24 de Abril ,19.85,-71.65
10804,El Catorce ,19.1333,-70.6667
10805,Las Crorias ,18.7333,-71.1833
10901,El Caliche ,18.4833,-69.9833
10902,Bella Colina ,18.4867,-70.0133
10903,Paraiso del Caribe ,18.4667,-70
10904,El Palmar ,18.45,-69.9833
10905,Las Caobitas ,18.45,-70.4667
11001,Zona Industrial de Herrera ,19.3367,-71.3267
11002,Barrio Enriquillo ,19.3367,-71.3267
11003,Las Palmas ,19.1,-71.6333
11004,Luz Divina ,19.3333,-71.45
11005,Herrera ,19.35,-70.3833
11101,Aesa ,18.65,-69.75
11102,Gacela ,18.825,-69.4417
11103,Km. 8 ,18.65,-69.75
11104,Las Acacias ,18.65,-69.75
11105,Km. 7 ,18.5,-69.8167
11106,Loteria ,18.5,-70.0167
11107,El Pedregal ,18.6,-70.0333
11108,Los Cacicazgos ,18.65,-69.75
11109,Mirador Sur ,18.65,-69.75
11110,Los Maestros ,18.4278,-70
11111,Renacimiento ,18.4278,-70
11112,Renacimiento ,18.4278,-70
11113,Zona Industrial de Herrera ,18.4278,-70
11114,Res. Santo Domingo ,18.4278,-70
11115,Barrio Paraiso ,18.4333,-70
11116,Residencial Canaan ,18.4278,-70
11117,Puerto de Haina ,18.425,-70
11201,Jardines de Genovena ,18.4917,-70.0833
11202,Carlos Alvarez ,18.5667,-69.9167
11203,Barrio Nuevo ,18,-71.2167
11204,El Fundo ,18.5167,-70.15
11205,Res. Sol de Luz ,18.6167,-70.1833
11206,De Villa Mella ,18.5833,-70.2652
11207,La Javilla ,18.9333,-70.0667
11301,Barrio Norte ,19.5833,-70.9833
11302,Barrio Nuevo ,18,-71.2167
11401,El Majagual ,19.0333,-70.3
11402,Villa Esperanza ,19.3833,-71.65
11403,Los Palmares ,19.4833,-70.7333
11404,Cerros de Sabana Perdida ,18.525,-69.8917
11405,Salome Ureña ,18.7762,-70.6357
11501,Ensanche Ozama ,18.4833,-69.8667
11502,Molinuevo ,18.7667,-70.3267
11503,Jardines de Alma Rosa ,18.7667,-70.3267
11504,Ens. Alma Rosa (Lado Este) ,18.7667,-70.3267
11505,Villa Faro ,18.5,-69.85
11506,Ivette ,18.7667,-70.3267
11507,Savica ,18.4833,-69.8333
11508,Loteria ,18.6,-70.5
11509,Isabel ,19.7667,-71.5833
11510,Res. del Este ,18.5,-69.8167
11511,Las Palmas ,18.5,-70.3333
11512,Duarte ,18.5,-69.8333
11513,Cabirma del Este I ,18.5083,-69.9361
11514,Res. Idalia A I ,18.5083,-69.9361
11515,El Cachon ,18.5,-69.9333
11516,Cancino ,18.5167,-69.85
11517,Cancino Adentro ,18.5333,-69.85
11518,Res. Amapola ,18.5083,-69.9361
11519,Altos de Cancino ,18.5083,-69.9361
11601,Pueblo Nuevo ,18.4333,-70.1667
11602,Simonico ,18.4833,-69.8667
11603,Parque del Este I ,18.4722,-69.9167
11604,Res. Parque del Este ,18.4722,-69.9167
11605,Los Tres Ojos ,18.4833,-69.85
11606,Villa Olimpica ,18.4722,-69.9167
11704,Corales del Sur ,18.4667,-69.825
11705,Los Frailes ,18.4667,-69.8167
11706,Reparto Caribe ,18.4667,-69.8333
11707,Lotificacion del Este ,18.4667,-69.825
11708,Mirador Este ,18.4667,-69.825
11801,Los Molinos ,18.5028,-69.9139
11802,Ciudad de Los Trabajadores ,18.5028,-69.9139
11803,San Jose de Mendoza ,18.5,-69.8167
11804,Res. Mirador del Este ,18.5028,-69.9139
11805,Barrio John F. Kennedy ,18.5028,-69.9139
11806,Zona Franca Industrial de Herrera ,18.5028,-69.9139
11807,Invi Cea ,18.4583,-70.0833
11808,Batey La Balsa ,18.5167,-69.2167
11809,El Tamarindo ,18.5333,-70.4833
11901,La Milagrosa ,18.5667,-68.9167
11902,Felicidad ,18.7667,-70.0333
11903,Katanga ,18.7278,-69.3944
11904,Cerros del Ozama ,18.85,-69.2333
11905,Los 3 Brazos ,18.7278,-69.3944
11906,Las Enfermeras ,18.7278,-69.3944
